[
  {
    "name" : "대치점",
    "address" : "서울 강남구 역삼로 433, 1층(대치동, 지상1층)",
    "latitude" : "37.5018151",
    "longitude" : "127.0543435",
    "contact" : "02-552-9206",
    "business hours" : "매일 12:00-24:00"
  },
  {
    "name" : "역삼1동점",
    "address" : "서울 강남구 테헤란로14길 34, 1층(역삼동, 이지소울리더 상가)",
    "latitude" : "37.4971751",
    "longitude" : "127.0335854",
    "contact" : "02-566-9206",
    "business hours" : "매일 11:00-01:00(익일)"
  },
  {
    "name" : "논현점",
    "address" : "서울 강남구 언주로 604(논현동)",
    "latitude" : "37.5093526",
    "longitude" : "127.0543435",
    "contact" : "127.0388621",
    "business hours" : "매일 11:10-23:00"
  },
  {
    "name" : "세곡점",
    "address" : "서울 강남구 자곡로 191(자곡동)",
    "latitude" : "37.4749865",
    "longitude" : "127.1038021",
    "contact" : "02-445-9206",
    "business hours" : "매일 11:00-23:00"
  },
  {
    "name" : "일원점",
    "address" : "서울 강남구 일원로9길 62 (일원동)",
    "latitude" : "37.4906846",
    "longitude" : "127.0865571",
    "contact" : "02-488-9206",
    "business hours" : "매일 15:00-23:30"
  },
  {
    "name" : "길동점",
    "address" : "서울 강동구 천호대로175길 14, 101호 (길동, 다성이즈빌)",
    "latitude" : "37.5352439",
    "longitude" : "127.1370565",
    "contact" : "02-451-9206",
    "business hours" : "매일 12:00-23:55"
  },
  {
    "name" : "성내점",
    "address" : "서울 강동구 성안로 70 (성내동)",
    "latitude" : "37.5297475",
    "longitude" : "127.1317728",
    "contact" : "02-477-9206",
    "business hours" : "매일 15:00-23:00"
  },
  {
    "name" : "명일점",
    "address" : "서울 강동구 고덕로38길 26",
    "latitude" : "37.5534098",
    "longitude" : "127.1425953",
    "contact" : "02-6406-9206",
    "business hours" : "매일 13:00-24:00"
  },
  {
    "name" : "고덕점",
    "address" : "서울 강동구 아리수로76길 46 (고덕동)",
    "latitude" : "37.560744",
    "longitude" : "127.1622614",
    "contact" : "02-426-9206",
    "business hours" : "평일 15:00-24:00 / 주말 14:00-24:00"
  },
  {
    "name" : "천호점",
    "address" : "서울 강동구 천중로 60 (천호동, 동해빌딩)",
    "latitude" : "37.5449049",
    "longitude" : "127.128459",
    "contact" : "02-476-9206",
    "business hours" : "매일 12:00-01:00(익일)"
  }
]